<?xml version="1.0" encoding="UTF-8"?>
<kml xmlns="http://www.opengis.net/kml/2.2"><Document><name>Naranja 3 [Sta. María - Ita]</name>
<Placemark><name>Naranja 3 [Sta. María - Ita]</name><LineString><tessellate>1</tessellate><coordinates>-101.164970,19.748320,0 -101.165100,19.747760,0 -101.165260,19.747800,0 -101.166030,19.748160,0 -101.166030,19.748160,0 -101.167330,19.748770,0 -101.167330,19.748770,0 -101.167530,19.748850,0 -101.167520,19.748780,0 -101.167480,19.747660,0 -101.167460,19.747190,0 -101.167460,19.747190,0 -101.167440,19.746740,0 -101.167440,19.745160,0 -101.167440,19.745160,0 -101.167420,19.744270,0 -101.168240,19.744260,0 -101.169010,19.744240,0 -101.169010,19.744240,0 -101.169250,19.744220,0 -101.169490,19.744120,0 -101.170400,19.743620,0 -101.170550,19.743540,0 -101.170550,19.743540,0 -101.171320,19.743130,0 -101.172390,19.743620,0 -101.172560,19.743690,0 -101.172560,19.743690,0 -101.174320,19.744500,0 -101.174320,19.744500,0 -101.174800,19.744720,0 -101.174020,19.746230,0 -101.173440,19.747310,0 -101.173440,19.747310,0 -101.172830,19.748520,0 -101.172090,19.749880,0 -101.172090,19.749880,0 -101.171570,19.750760,0 -101.170870,19.752120,0 -101.170740,19.752360,0 -101.170740,19.752360,0 -101.170160,19.753430,0 -101.169310,19.755040,0 -101.169310,19.755040,0 -101.168420,19.756760,0 -101.168050,19.757460,0 -101.168000,19.757510,0 -101.167860,19.757640,0 -101.167610,19.757900,0 -101.167230,19.758200,0 -101.167010,19.758320,0 -101.166720,19.758380,0 -101.166470,19.758400,0 -101.165780,19.758350,0 -101.165780,19.758350,0 -101.165620,19.758350,0 -101.165340,19.758300,0 -101.165290,19.758250,0 -101.165170,19.758220,0 -101.165040,19.758270,0 -101.165000,19.758320,0 -101.164980,19.758380,0 -101.164980,19.758460,0 -101.165000,19.758510,0 -101.165040,19.758560,0 -101.165110,19.758590,0 -101.165230,19.758600,0 -101.165330,19.758540,0 -101.165350,19.758520,0 -101.165580,19.758490,0 -101.166090,19.758500,0 -101.166090,19.758500,0 -101.167530,19.758560,0 -101.167730,19.758570,0 -101.168270,19.758610,0 -101.168360,19.758700,0 -101.168470,19.758710,0 -101.168550,19.758670,0 -101.168610,19.758580,0 -101.168600,19.758480,0 -101.168520,19.758400,0 -101.168420,19.758380,0 -101.168400,19.758380,0 -101.168340,19.758310,0 -101.168250,19.758140,0 -101.168230,19.757950,0 -101.168270,19.757820,0 -101.168400,19.757590,0 -101.168780,19.756930,0 -101.169320,19.755780,0 -101.169580,19.755190,0 -101.169580,19.755190,0 -101.169790,19.754790,0 -101.169840,19.754570,0 -101.170080,19.753980,0 -101.170940,19.752360,0 -101.171770,19.750760,0 -101.172180,19.750000,0 -101.172180,19.750000,0 -101.173500,19.747450,0 -101.173500,19.747450,0 -101.174190,19.746160,0 -101.174820,19.744920,0 -101.174990,19.744610,0 -101.174990,19.744610,0 -101.176100,19.742500,0 -101.176720,19.741280,0 -101.176720,19.741280,0 -101.177750,19.739380,0 -101.177890,19.739170,0 -101.177890,19.739170,0 -101.177950,19.739090,0 -101.178150,19.738880,0 -101.178780,19.738510,0 -101.179130,19.738330,0 -101.180280,19.737790,0 -101.181360,19.737250,0 -101.181530,19.737140,0 -101.181530,19.737140,0 -101.181840,19.736900,0 -101.182030,19.736710,0 -101.182170,19.736530,0 -101.182400,19.736160,0 -101.182540,19.735800,0 -101.182590,19.735510,0 -101.182610,19.735240,0 -101.182720,19.735160,0 -101.182750,19.735110,0 -101.182790,19.734960,0 -101.182810,19.734690,0 -101.182850,19.734020,0 -101.182850,19.734020,0 -101.183000,19.732390,0 -101.183070,19.731650,0 -101.183070,19.731650,0 -101.183200,19.730090,0 -101.183270,19.729550,0 -101.183230,19.729450,0 -101.183130,19.729290,0 -101.183220,19.728170,0 -101.183220,19.728170,0 -101.183280,19.727720,0 -101.183360,19.727440,0 -101.183470,19.727000,0 -101.183660,19.726420,0 -101.183940,19.725790,0 -101.184150,19.725430,0 -101.184210,19.725320,0 -101.184210,19.725320,0 -101.184370,19.725120,0 -101.184710,19.724770,0 -101.185170,19.724360,0 -101.185370,19.724190,0 -101.186130,19.723570,0 -101.186130,19.723570,0 -101.186980,19.722870,0 -101.187290,19.722580,0 -101.187290,19.722580,0 -101.187590,19.722320,0 -101.187730,19.722140,0 -101.188020,19.721750,0 -101.188290,19.721280,0 -101.188300,19.721270,0 -101.188370,19.721150,0 -101.188380,19.720980,0 -101.188430,19.720350,0 -101.188430,19.720350,0 -101.188510,19.719380,0 -101.188580,19.718570,0 -101.188650,19.717680,0 -101.188650,19.717610,0 -101.188650,19.717610,0 -101.188770,19.716470,0 -101.188960,19.715840,0 -101.189040,19.715530,0 -101.189070,19.715280,0 -101.189050,19.715110,0 -101.188900,19.714620,0 -101.188900,19.714620,0 -101.188450,19.713130,0 -101.188290,19.712550,0 -101.188230,19.712240,0 -101.188210,19.712000,0 -101.188230,19.711720,0 -101.188310,19.711510,0 -101.188620,19.710890,0 -101.188790,19.710600,0 -101.188880,19.710400,0 -101.189110,19.710030,0 -101.189110,19.710030,0 -101.190120,19.708410,0 -101.190120,19.708410,0 -101.190410,19.707960,0 -101.190690,19.707400,0 -101.190800,19.707010,0 -101.190800,19.707010,0 -101.191010,19.706400,0 -101.191150,19.705950,0 -101.191290,19.705670,0 -101.191340,19.705460,0 -101.191340,19.705460,0 -101.191360,19.704680,0 -101.189620,19.704670,0 -101.189110,19.704660,0 -101.189110,19.704660,0 -101.188730,19.704650,0 -101.188730,19.704410,0 -101.188720,19.703780,0 -101.188760,19.703280,0 -101.188760,19.703280,0 -101.188810,19.702040,0 -101.187950,19.701980,0 -101.187840,19.701990,0 -101.187300,19.701930,0 -101.187300,19.701930,0 -101.186560,19.701890,0 -101.186590,19.701660,0 -101.186590,19.701250,0 -101.186520,19.700940,0 -101.186410,19.700620,0 -101.186290,19.700340,0 -101.186290,19.700340,0 -101.185780,19.699050,0 -101.185740,19.698680,0 -101.185740,19.698680,0 -101.185710,19.698370,0 -101.185720,19.697380,0 -101.185720,19.696840,0 -101.185130,19.696770,0 -101.184220,19.696650,0 -101.183450,19.696530,0 -101.183450,19.696530,0 -101.182480,19.696390,0 -101.182590,19.695800,0 -101.182590,19.695800,0 -101.182920,19.693790,0 -101.183000,19.693330,0 -101.183000,19.693330,0 -101.183140,19.692460,0 -101.183200,19.691940,0 -101.183290,19.691490,0 -101.183450,19.690500,0 -101.183450,19.690500,0 -101.183650,19.689270,0 -101.184500,19.689460,0 -101.184500,19.689460,0 -101.185300,19.689660,0 -101.186210,19.689910,0 -101.186560,19.690040,0 -101.187980,19.690400,0 -101.187980,19.690180,0 -101.188020,19.688980,0 -101.188020,19.688980,0 -101.188060,19.687340,0 -101.188100,19.686260,0 -101.188100,19.686260,0 -101.188170,19.684110,0 -101.188210,19.683220,0 -101.188210,19.683220,0 -101.188250,19.682240,0 -101.188310,19.681770,0 -101.188540,19.681880,0 -101.188540,19.681880,0 -101.189450,19.682300,0 -101.189630,19.682370,0 -101.189930,19.682450,0 -101.190380,19.682530,0 -101.190880,19.682540,0 -101.191280,19.682500,0 -101.191870,19.682410,0 -101.193320,19.682190,0 -101.193320,19.682190,0 -101.194350,19.682050,0 -101.194810,19.682030,0 -101.194950,19.682060,0 -101.195120,19.682140,0 -101.195220,19.682210,0 -101.195400,19.682400,0 -101.195550,19.682380,0 -101.195570,19.682400,0 -101.195670,19.682430,0 -101.195780,19.682440,0 -101.195890,19.682370,0 -101.195940,19.682250,0 -101.196030,19.681910,0 -101.196210,19.681550,0 -101.196410,19.681350,0 -101.196850,19.681160,0 -101.197030,19.681110,0 -101.197280,19.681110,0 -101.197500,19.681130,0 -101.197660,19.681160,0 -101.198270,19.681230,0 -101.198670,19.681240,0 -101.199200,19.681180,0 -101.199200,19.681180,0 -101.200040,19.681040,0 -101.200250,19.680980,0 -101.200520,19.680880,0 -101.200800,19.680740,0 -101.201050,19.680520,0 -101.201160,19.680380,0 -101.201260,19.680190,0 -101.201380,19.679860,0 -101.201700,19.678880,0 -101.202120,19.677670,0 -101.202120,19.677670,0 -101.202200,19.677470,0 -101.202230,19.677250,0 -101.202100,19.677240,0 -101.202010,19.677270,0 -101.201710,19.677640,0 -101.201570,19.677770,0 -101.201430,19.677830,0 -101.201390,19.677850,0 -101.201300,19.677870,0 -101.200410,19.677830,0 -101.200230,19.677820,0 -101.200230,19.677820,0 -101.198220,19.677770,0 -101.198060,19.677760,0 -101.198060,19.677760,0 -101.197490,19.677730,0 -101.197480,19.677400,0 -101.197480,19.676570,0 -101.197480,19.676570,0 -101.197460,19.675820,0 -101.197170,19.675810,0 -101.197170,19.675810,0 -101.196900,19.675790,0 -101.197330,19.675260,0 -101.197520,19.674980,0 -101.197580,19.674870,0 -101.197580,19.674870,0 -101.197790,19.674360,0 -101.197910,19.673960,0 -101.197970,19.673400,0 -101.197970,19.673400,0 -101.198000,19.673030,0 -101.197870,19.673010,0 -101.197990,19.672270,0 -101.198000,19.672070,0 -101.198000,19.672070,0 -101.198050,19.671580,0 -101.198150,19.671080,0 -101.198160,19.670980,0 -101.198120,19.670930,0 -101.198070,19.670910,0 -101.197130,19.670990,0 -101.197130,19.670990,0 -101.196380,19.671010,0 -101.196210,19.670360,0 -101.196210,19.670360,0 -101.196090,19.669970,0 -101.195580,19.670250,0 -101.195140,19.670500,0 -101.195140,19.670500,0 -101.194740,19.670750,0 -101.194660,19.670730,0 -101.194140,19.670580,0 -101.194080,19.670570,0 -101.193780,19.670580,0 -101.193660,19.670580,0 -101.193660,19.670580,0 -101.193490,19.670560,0 -101.193120,19.670530,0 -101.193010,19.670570,0 -101.192910,19.670600,0 -101.192700,19.670590,0 -101.191940,19.670510,0 -101.191940,19.670510,0 -101.191730,19.670480,0 -101.191510,19.670340,0 -101.191280,19.670270,0 -101.191110,19.670200,0 -101.191000,19.670140,0 -101.190660,19.669970,0 -101.190490,19.669910,0 -101.190340,19.669900,0 -101.190290,19.669910,0 -101.190310,19.669940,0 -101.190310,19.669940,0 -101.190430,19.670100,0 -101.190480,19.670290,0 -101.190490,19.670540,0 -101.190450,19.671010,0 -101.190420,19.671840,0 -101.190420,19.671840,0 -101.190420,19.672130,0 -101.189370,19.672190,0 -101.189370,19.672190,0 -101.188190,19.672280,0 -101.188030,19.672260,0 -101.187820,19.672200,0 -101.187570,19.672110,0 -101.186850,19.671980,0 -101.186850,19.671980,0 -101.185790,19.671740,0 -101.185290,19.671620,0 -101.185350,19.671380,0 -101.185350,19.671380,0 -101.185530,19.670740,0 -101.185200,19.670670,0 -101.185200,19.670670,0 -101.184000,19.670390,0 -101.184000,19.670390,0 -101.182330,19.670000,0 -101.182330,19.670000,0 -101.182090,19.669950,0 -101.182240,19.669400,0 -101.182500,19.669460,0 -101.182500,19.669460,0 -101.184100,19.669860,0 -101.184100,19.669860,0 -101.185100,19.670090,0 -101.185040,19.670310,0 -101.185040,19.670310,0 -101.184800,19.671240,0 -101.184800,19.671240,0 -101.184740,19.671500,0 -101.184610,19.671480,0 -101.184550,19.671630,0 -101.184930,19.671790,0 -101.184930,19.671790,0 -101.186320,19.672330,0 -101.186320,19.672330,0 -101.187590,19.672810,0 -101.187590,19.672810,0 -101.188320,19.673150,0 -101.188570,19.673230,0 -101.188870,19.673330,0 -101.189170,19.673390,0 -101.189540,19.673390,0 -101.189540,19.673390,0 -101.190070,19.673380,0 -101.190470,19.673360,0 -101.190430,19.672750,0 -101.190420,19.671900,0 -101.190420,19.671900,0 -101.190450,19.671010,0 -101.190490,19.670540,0 -101.190480,19.670290,0 -101.190430,19.670100,0 -101.190390,19.670020,0 -101.190400,19.670030,0 -101.190290,19.669910,0 -101.190340,19.669900,0 -101.190410,19.669890,0 -101.190660,19.669970,0 -101.191000,19.670140,0 -101.191110,19.670200,0 -101.191450,19.670310,0 -101.191590,19.670390,0 -101.191730,19.670480,0 -101.191790,19.670500,0 -101.192030,19.670520,0 -101.192030,19.670520,0 -101.192840,19.670600,0 -101.192950,19.670590,0 -101.193120,19.670530,0 -101.193760,19.670580,0 -101.193760,19.670580,0 -101.194040,19.670570,0 -101.194250,19.670610,0 -101.194740,19.670750,0 -101.195090,19.670520,0 -101.195200,19.670450,0 -101.195200,19.670450,0 -101.196090,19.669970,0 -101.196200,19.670320,0 -101.196230,19.670440,0 -101.196230,19.670430,0 -101.196340,19.670840,0 -101.196380,19.671010,0 -101.197080,19.670990,0 -101.197080,19.670990,0 -101.198070,19.670910,0 -101.198120,19.670930,0 -101.198160,19.670980,0 -101.198150,19.671080,0 -101.198050,19.671580,0 -101.198020,19.671890,0 -101.198020,19.671890,0 -101.197990,19.672270,0 -101.197870,19.673010,0 -101.197850,19.673140,0 -101.197850,19.673140,0 -101.197800,19.673790,0 -101.197740,19.674140,0 -101.197490,19.674670,0 -101.197490,19.674670,0 -101.197270,19.675120,0 -101.197010,19.675480,0 -101.196830,19.675660,0 -101.196830,19.675660,0 -101.196670,19.675820,0 -101.196680,19.675970,0 -101.196670,19.676440,0 -101.196660,19.676540,0 -101.196660,19.676540,0 -101.196670,19.677370,0 -101.196650,19.678000,0 -101.196650,19.678000,0 -101.196630,19.679310,0 -101.197240,19.679490,0 -101.197360,19.679530,0 -101.197520,19.679700,0 -101.197550,19.679850,0 -101.197550,19.679950,0 -101.197550,19.679950,0 -101.197550,19.680140,0 -101.197510,19.680240,0 -101.197470,19.680300,0 -101.197300,19.680420,0 -101.197020,19.680530,0 -101.196760,19.680590,0 -101.196310,19.680620,0 -101.196050,19.680680,0 -101.195670,19.680840,0 -101.195450,19.680970,0 -101.195210,19.681060,0 -101.194720,19.681140,0 -101.193010,19.681310,0 -101.192490,19.681520,0 -101.192360,19.681600,0 -101.192230,19.681750,0 -101.192190,19.681840,0 -101.192070,19.682060,0 -101.192000,19.682130,0 -101.191870,19.682410,0 -101.191660,19.682600,0 -101.191430,19.682980,0 -101.191390,19.683030,0 -101.191300,19.683110,0 -101.191130,19.683180,0 -101.190850,19.683290,0 -101.190800,19.683320,0 -101.190760,19.683460,0 -101.190760,19.684350,0 -101.190760,19.684350,0 -101.190730,19.685400,0 -101.189980,19.685320,0 -101.189980,19.685320,0 -101.188770,19.685190,0 -101.188770,19.685190,0 -101.188130,19.685110,0 -101.188120,19.685570,0 -101.188100,19.686210,0 -101.188100,19.686210,0 -101.188030,19.688860,0 -101.188030,19.688860,0 -101.187980,19.690000,0 -101.187980,19.690400,0 -101.187960,19.690790,0 -101.186530,19.690660,0 -101.185990,19.690530,0 -101.185990,19.690530,0 -101.185210,19.690370,0 -101.183970,19.690140,0 -101.183830,19.691540,0 -101.183800,19.692030,0 -101.183810,19.692680,0 -101.183800,19.692710,0 -101.183800,19.692710,0 -101.183760,19.693110,0 -101.183750,19.693490,0 -101.183670,19.694560,0 -101.183640,19.695460,0 -101.183640,19.695460,0 -101.183600,19.696560,0 -101.183690,19.697700,0 -101.183690,19.697700,0 -101.183720,19.698350,0 -101.184090,19.698370,0 -101.184880,19.698400,0 -101.184880,19.698400,0 -101.185250,19.698420,0 -101.185710,19.698370,0 -101.186430,19.698300,0 -101.186970,19.698330,0 -101.187440,19.698310,0 -101.187440,19.698310,0 -101.188470,19.698300,0 -101.188820,19.698300,0 -101.189080,19.698340,0 -101.189310,19.698360,0 -101.189310,19.698360,0 -101.189790,19.698370,0 -101.189730,19.699170,0 -101.189730,19.700310,0 -101.189730,19.700310,0 -101.189720,19.701600,0 -101.189720,19.701600,0 -101.189710,19.702070,0 -101.189720,19.702890,0 -101.189680,19.703810,0 -101.189590,19.703810,0 -101.189620,19.704190,0 -101.189620,19.704700,0 -101.189600,19.705070,0 -101.189550,19.705220,0 -101.189470,19.705280,0 -101.189430,19.705330,0 -101.189370,19.705400,0 -101.189360,19.705490,0 -101.189340,19.705920,0 -101.189260,19.706290,0 -101.189260,19.706290,0 -101.189090,19.707020,0 -101.188840,19.707880,0 -101.188840,19.707880,0 -101.188760,19.708150,0 -101.188600,19.709290,0 -101.188600,19.709290,0 -101.188450,19.710480,0 -101.188450,19.710480,0 -101.188340,19.711060,0 -101.188240,19.711490,0 -101.188240,19.711670,0 -101.188210,19.712100,0 -101.188290,19.712550,0 -101.187610,19.712760,0 -101.186500,19.713120,0 -101.186120,19.713300,0 -101.185810,19.713500,0 -101.185810,19.713500,0 -101.185410,19.713790,0 -101.184800,19.714200,0 -101.182130,19.716130,0 -101.182420,19.716490,0 -101.182930,19.716070,0 -101.184150,19.715140,0 -101.184680,19.714760,0 -101.185410,19.714160,0 -101.185980,19.713760,0 -101.185980,19.713760,0 -101.186290,19.713560,0 -101.186510,19.713460,0 -101.188390,19.712910,0 -101.188520,19.713340,0 -101.188980,19.714880,0 -101.188980,19.714880,0 -101.189070,19.715280,0 -101.189040,19.715530,0 -101.188960,19.715840,0 -101.188770,19.716470,0 -101.188680,19.717240,0 -101.188660,19.717450,0 -101.188660,19.717450,0 -101.188620,19.718070,0 -101.188520,19.719100,0 -101.188420,19.720520,0 -101.188420,19.720520,0 -101.188390,19.720820,0 -101.188380,19.721000,0 -101.188260,19.721050,0 -101.188200,19.721120,0 -101.187870,19.721690,0 -101.187530,19.722010,0 -101.187530,19.722010,0 -101.186330,19.723130,0 -101.186170,19.723260,0 -101.185850,19.723550,0 -101.185850,19.723550,0 -101.185370,19.724010,0 -101.185110,19.724220,0 -101.184520,19.724770,0 -101.184160,19.725220,0 -101.184160,19.725220,0 -101.183890,19.725620,0 -101.183560,19.726210,0 -101.183350,19.726670,0 -101.183250,19.726990,0 -101.183200,19.727160,0 -101.183130,19.727600,0 -101.183100,19.727810,0 -101.183100,19.727810,0 -101.183010,19.729110,0 -101.182960,19.729220,0 -101.182940,19.729300,0 -101.182860,19.730090,0 -101.182870,19.730480,0 -101.182840,19.730750,0 -101.182770,19.731470,0 -101.182760,19.731530,0 -101.182760,19.731530,0 -101.182680,19.732240,0 -101.182540,19.733880,0 -101.182540,19.733940,0 -101.182540,19.733940,0 -101.182440,19.735160,0 -101.182450,19.735290,0 -101.182470,19.735330,0 -101.182440,19.735500,0 -101.182350,19.735860,0 -101.182250,19.736130,0 -101.182090,19.736420,0 -101.181770,19.736780,0 -101.181520,19.736990,0 -101.181510,19.736990,0 -101.181510,19.736990,0 -101.180280,19.737680,0 -101.178910,19.738330,0 -101.178610,19.738470,0 -101.178320,19.738640,0 -101.178140,19.738760,0 -101.177880,19.739000,0 -101.177660,19.739250,0 -101.177660,19.739250,0 -101.177540,19.739430,0 -101.177150,19.740190,0 -101.176720,19.740930,0 -101.176580,19.741180,0 -101.176580,19.741180,0 -101.176310,19.741710,0 -101.175540,19.743240,0 -101.174800,19.744720,0 -101.174270,19.744480,0 -101.174270,19.744480,0 -101.172510,19.743670,0 -101.172510,19.743670,0 -101.171320,19.743130,0 -101.170640,19.743490,0 -101.170640,19.743490,0 -101.170400,19.743620,0 -101.169490,19.744120,0 -101.169250,19.744220,0 -101.168940,19.744240,0 -101.168940,19.744240,0 -101.168240,19.744260,0 -101.167420,19.744270,0 -101.167440,19.745150,0 -101.167440,19.745250,0 -101.167440,19.745250,0 -101.167440,19.746740,0 -101.167460,19.747120,0 -101.167460,19.747120,0 -101.167470,19.747840,0 -101.167530,19.748850,0 -101.167290,19.748740,0 -101.167290,19.748740,0 -101.165950,19.748130,0 -101.165950,19.748130,0 -101.165260,19.747800,0 -101.165100,19.747760,0 -101.164970,19.748320,0</coordinates></LineString></Placemark>
<Placemark><name>Nardo, 36</name><Point><coordinates>-101.165014,19.748331,0</coordinates></Point></Placemark>
<Placemark><name>Calle Jacarandas, 455</name><Point><coordinates>-101.166027,19.748189,0</coordinates></Point></Placemark>
<Placemark><name>Calle Jacaranda, 272</name><Point><coordinates>-101.167331,19.748785,0</coordinates></Point></Placemark>
<Placemark><name>Calle Encino, 444</name><Point><coordinates>-101.167492,19.747190,0</coordinates></Point></Placemark>
<Placemark><name>Calle Encino, 12</name><Point><coordinates>-101.167479,19.745162,0</coordinates></Point></Placemark>
<Placemark><name>Madroño, 488</name><Point><coordinates>-101.169018,19.744268,0</coordinates></Point></Placemark>
<Placemark><name>Guayacan, 348</name><Point><coordinates>-101.170569,19.743561,0</coordinates></Point></Placemark>
<Placemark><name>Fresno, 115</name><Point><coordinates>-101.172559,19.743720,0</coordinates></Point></Placemark>
<Placemark><name>Fresno, 89</name><Point><coordinates>-101.174313,19.744533,0</coordinates></Point></Placemark>
<Placemark><name>Avenida Morelos Norte, 5938b</name><Point><coordinates>-101.173416,19.747297,0</coordinates></Point></Placemark>
<Placemark><name>Sin Referencia, 6120</name><Point><coordinates>-101.172053,19.749857,0</coordinates></Point></Placemark>
<Placemark><name>Uriangato - Morelia, 6400</name><Point><coordinates>-101.170688,19.752336,0</coordinates></Point></Placemark>
<Placemark><name>Uriangato - Morelia, 6400</name><Point><coordinates>-101.169277,19.755022,0</coordinates></Point></Placemark>
<Placemark><name>Autobuses Del Río</name><Point><coordinates>-101.165784,19.758317,0</coordinates></Point></Placemark>
<Placemark><name>Autobuses Del Río</name><Point><coordinates>-101.166090,19.758524,0</coordinates></Point></Placemark>
<Placemark><name>Uriangato - Morelia, 6400</name><Point><coordinates>-101.169619,19.755204,0</coordinates></Point></Placemark>
<Placemark><name>Acacias, 119</name><Point><coordinates>-101.172209,19.750019,0</coordinates></Point></Placemark>
<Placemark><name>Roble, 36</name><Point><coordinates>-101.173534,19.747474,0</coordinates></Point></Placemark>
<Placemark><name>Avenida Morelos Norte, 6688</name><Point><coordinates>-101.175031,19.744637,0</coordinates></Point></Placemark>
<Placemark><name>Morelos Norte, 4995</name><Point><coordinates>-101.176789,19.741309,0</coordinates></Point></Placemark>
<Placemark><name>Avenida Morelos Norte, 143</name><Point><coordinates>-101.177936,19.739206,0</coordinates></Point></Placemark>
<Placemark><name>Morelos Norte, 4185</name><Point><coordinates>-101.181558,19.737168,0</coordinates></Point></Placemark>
<Placemark><name>Calle Rosio Prospero, 3999</name><Point><coordinates>-101.182907,19.734033,0</coordinates></Point></Placemark>
<Placemark><name>Avenida Morelos Norte, 655</name><Point><coordinates>-101.183138,19.731663,0</coordinates></Point></Placemark>
<Placemark><name>Morelos Norte, 1971</name><Point><coordinates>-101.183282,19.728182,0</coordinates></Point></Placemark>
<Placemark><name>Morelos Norte, 3257</name><Point><coordinates>-101.184269,19.725351,0</coordinates></Point></Placemark>
<Placemark><name>Avenida Morelos Norte, 68</name><Point><coordinates>-101.186158,19.723599,0</coordinates></Point></Placemark>
<Placemark><name>Avenida Morelos Norte, 2975</name><Point><coordinates>-101.187327,19.722609,0</coordinates></Point></Placemark>
<Placemark><name>Avenida Morelos Norte, 2151_3</name><Point><coordinates>-101.188500,19.720363,0</coordinates></Point></Placemark>
<Placemark><name>Avenida Morelos Norte, 1809</name><Point><coordinates>-101.188737,19.717622,0</coordinates></Point></Placemark>
<Placemark><name>Carretera Guadalajara - Morelia, 1495</name><Point><coordinates>-101.188964,19.714610,0</coordinates></Point></Placemark>
<Placemark><name>Avenida Morelos Norte, 929</name><Point><coordinates>-101.189147,19.710051,0</coordinates></Point></Placemark>
<Placemark><name>Avenida Morelos Norte, 719</name><Point><coordinates>-101.190151,19.708435,0</coordinates></Point></Placemark>
<Placemark><name>Avenida Morelos Norte, 557</name><Point><coordinates>-101.190869,19.707031,0</coordinates></Point></Placemark>
<Placemark><name>Calle De Eduardo Ruiz, 23</name><Point><coordinates>-101.191384,19.705468,0</coordinates></Point></Placemark>
<Placemark><name>20 De Noviembre, 242</name><Point><coordinates>-101.189119,19.704599,0</coordinates></Point></Placemark>
<Placemark><name>Calle Belisario Domínguez, 47a</name><Point><coordinates>-101.188781,19.703286,0</coordinates></Point></Placemark>
<Placemark><name>Bartolomé De Las Casas, 260</name><Point><coordinates>-101.187311,19.701887,0</coordinates></Point></Placemark>
<Placemark><name>Calle Juan José De Lejarza, 286</name><Point><coordinates>-101.186363,19.700319,0</coordinates></Point></Placemark>
<Placemark><name>Calle Juan José De Lejarza, 474</name><Point><coordinates>-101.185795,19.698683,0</coordinates></Point></Placemark>
<Placemark><name>Calle Ana María Gallaga, 911d</name><Point><coordinates>-101.183458,19.696504,0</coordinates></Point></Placemark>
<Placemark><name>Gertrudis Bocanegra, 680</name><Point><coordinates>-101.182666,19.695815,0</coordinates></Point></Placemark>
<Placemark><name>Gertrudis Bocanegra, 889</name><Point><coordinates>-101.183044,19.693344,0</coordinates></Point></Placemark>
<Placemark><name>Gertrudis Bocanegra, 1349(1293)</name><Point><coordinates>-101.183488,19.690508,0</coordinates></Point></Placemark>
<Placemark><name>Avenida Solidaridad, 781</name><Point><coordinates>-101.184505,19.689475,0</coordinates></Point></Placemark>
<Placemark><name>Calle Vicente Santa María, 1403</name><Point><coordinates>-101.188059,19.688983,0</coordinates></Point></Placemark>
<Placemark><name>Calle Vicente Santa María, 357</name><Point><coordinates>-101.188128,19.686266,0</coordinates></Point></Placemark>
<Placemark><name>Calle Vicente Santa María, 2004</name><Point><coordinates>-101.188246,19.683227,0</coordinates></Point></Placemark>
<Placemark><name>Periférico Paseo De La República, 303</name><Point><coordinates>-101.188532,19.681895,0</coordinates></Point></Placemark>
<Placemark><name>Periférico Paseo De La República, 112</name><Point><coordinates>-101.193326,19.682225,0</coordinates></Point></Placemark>
<Placemark><name>Calle Margarita Maza De Juárez, 824</name><Point><coordinates>-101.199211,19.681233,0</coordinates></Point></Placemark>
<Placemark><name>Periférico Paseo De La República, 1500</name><Point><coordinates>-101.202174,19.677692,0</coordinates></Point></Placemark>
<Placemark><name>Calle Rey Tariacuri, 392</name><Point><coordinates>-101.200235,19.677745,0</coordinates></Point></Placemark>
<Placemark><name>Calle Rey Tariacuri, 353</name><Point><coordinates>-101.198068,19.677705,0</coordinates></Point></Placemark>
<Placemark><name>Calle Pisperama, 259</name><Point><coordinates>-101.197508,19.676576,0</coordinates></Point></Placemark>
<Placemark><name>Nahuas, 252</name><Point><coordinates>-101.197181,19.675768,0</coordinates></Point></Placemark>
<Placemark><name>Michuacan, 181</name><Point><coordinates>-101.197609,19.674890,0</coordinates></Point></Placemark>
<Placemark><name>Michuacan, 435</name><Point><coordinates>-101.198001,19.673407,0</coordinates></Point></Placemark>
<Placemark><name>Chumpitaro, 43</name><Point><coordinates>-101.198043,19.672078,0</coordinates></Point></Placemark>
<Placemark><name>Manouapa, 121</name><Point><coordinates>-101.197136,19.670950,0</coordinates></Point></Placemark>
<Placemark><name>Calle Eréndira, 235</name><Point><coordinates>-101.196251,19.670349,0</coordinates></Point></Placemark>
<Placemark><name>Alfredo Iturbide, 59</name><Point><coordinates>-101.195108,19.670455,0</coordinates></Point></Placemark>
<Placemark><name>Luis Octaviano Madero, 7</name><Point><coordinates>-101.193665,19.670531,0</coordinates></Point></Placemark>
<Placemark><name>Luis Octaviano Madero, 225</name><Point><coordinates>-101.191947,19.670475,0</coordinates></Point></Placemark>
<Placemark><name>Ramón López Velarde Sur, 293</name><Point><coordinates>-101.190271,19.669977,0</coordinates></Point></Placemark>
<Placemark><name>Ramón López Velarde Sur, 99</name><Point><coordinates>-101.190358,19.671839,0</coordinates></Point></Placemark>
<Placemark><name>Antonio Plaza, 112</name><Point><coordinates>-101.189368,19.672156,0</coordinates></Point></Placemark>
<Placemark><name>Antonio Plaza, 366</name><Point><coordinates>-101.186862,19.671959,0</coordinates></Point></Placemark>
<Placemark><name>Profesor José López Rodríguez, 38</name><Point><coordinates>-101.185397,19.671394,0</coordinates></Point></Placemark>
<Placemark><name>Carlos Pellicer López, 48</name><Point><coordinates>-101.185215,19.670626,0</coordinates></Point></Placemark>
<Placemark><name>Fco. Javier Alegre, 45</name><Point><coordinates>-101.184014,19.670346,0</coordinates></Point></Placemark>
<Placemark><name>Carlos Pellicer López, 87</name><Point><coordinates>-101.182340,19.669962,0</coordinates></Point></Placemark>
<Placemark><name>Alfonso Reyes, 126</name><Point><coordinates>-101.182501,19.669487,0</coordinates></Point></Placemark>
<Placemark><name>Fco. Javier Alegre, 182</name><Point><coordinates>-101.184099,19.669878,0</coordinates></Point></Placemark>
<Placemark><name>Donato Arenas López, 95</name><Point><coordinates>-101.185012,19.670310,0</coordinates></Point></Placemark>
<Placemark><name>Donato Arenas López, 36</name><Point><coordinates>-101.184771,19.671240,0</coordinates></Point></Placemark>
<Placemark><name>Calle Juan De Dios Peza, 689</name><Point><coordinates>-101.184932,19.671805,0</coordinates></Point></Placemark>
<Placemark><name>Calle Juan De Dios Peza, 414</name><Point><coordinates>-101.186316,19.672366,0</coordinates></Point></Placemark>
<Placemark><name>Calle Juan De Dios Peza, 283a</name><Point><coordinates>-101.187582,19.672846,0</coordinates></Point></Placemark>
<Placemark><name>Calle Juan De Dios Peza, 93</name><Point><coordinates>-101.189540,19.673424,0</coordinates></Point></Placemark>
<Placemark><name>Ramón López Velarde Norte, 86</name><Point><coordinates>-101.190487,19.671901,0</coordinates></Point></Placemark>
<Placemark><name>Ramón López Velarde Norte, 189</name><Point><coordinates>-101.190443,19.669997,0</coordinates></Point></Placemark>
<Placemark><name>Luis Octaviano Madero, 225</name><Point><coordinates>-101.192027,19.670556,0</coordinates></Point></Placemark>
<Placemark><name>Luis Octaviano Madero, 6</name><Point><coordinates>-101.193761,19.670607,0</coordinates></Point></Placemark>
<Placemark><name>Alfredo Iturbide, 85</name><Point><coordinates>-101.195220,19.670486,0</coordinates></Point></Placemark>
<Placemark><name>Calle Eréndira, 235</name><Point><coordinates>-101.196208,19.670445,0</coordinates></Point></Placemark>
<Placemark><name>Manouapa, 121</name><Point><coordinates>-101.197088,19.671021,0</coordinates></Point></Placemark>
<Placemark><name>Chumpitaro, 43</name><Point><coordinates>-101.198000,19.671891,0</coordinates></Point></Placemark>
<Placemark><name>Michuacan, 255</name><Point><coordinates>-101.197835,19.673145,0</coordinates></Point></Placemark>
<Placemark><name>Michuacan, 313</name><Point><coordinates>-101.197474,19.674662,0</coordinates></Point></Placemark>
<Placemark><name>Nahuas, 101</name><Point><coordinates>-101.196804,19.675637,0</coordinates></Point></Placemark>
<Placemark><name>Calle Eréndira, 283</name><Point><coordinates>-101.196640,19.676547,0</coordinates></Point></Placemark>
<Placemark><name>Calle Eréndira, 147</name><Point><coordinates>-101.196597,19.678007,0</coordinates></Point></Placemark>
<Placemark><name>Avenida Rey Tangaxoan Ii, 395</name><Point><coordinates>-101.197505,19.679953,0</coordinates></Point></Placemark>
<Placemark><name>Aramen, 5</name><Point><coordinates>-101.190703,19.684353,0</coordinates></Point></Placemark>
<Placemark><name>Rey Tanganxoan, 163</name><Point><coordinates>-101.189993,19.685284,0</coordinates></Point></Placemark>
<Placemark><name>Rey Tanganxoan, 276</name><Point><coordinates>-101.188780,19.685137,0</coordinates></Point></Placemark>
<Placemark><name>Calle Vicente Santa María, 357</name><Point><coordinates>-101.188063,19.686215,0</coordinates></Point></Placemark>
<Placemark><name>Calle Vicente Santa María, 1447</name><Point><coordinates>-101.187989,19.688861,0</coordinates></Point></Placemark>
<Placemark><name>Lago De Camecuaro, 500</name><Point><coordinates>-101.186005,19.690494,0</coordinates></Point></Placemark>
<Placemark><name>Calle Isidro Huarte, 1002</name><Point><coordinates>-101.183746,19.692712,0</coordinates></Point></Placemark>
<Placemark><name>Calle Isidro Huarte, 565</name><Point><coordinates>-101.183597,19.695465,0</coordinates></Point></Placemark>
<Placemark><name>Calle Isidro Huarte, 585</name><Point><coordinates>-101.183619,19.697707,0</coordinates></Point></Placemark>
<Placemark><name>Calle Ortega Y Montañes, 700</name><Point><coordinates>-101.184885,19.698440,0</coordinates></Point></Placemark>
<Placemark><name>Calle Ortega Y Montañes, 418</name><Point><coordinates>-101.187443,19.698343,0</coordinates></Point></Placemark>
<Placemark><name>Calle Ortega Y Montañes, 222</name><Point><coordinates>-101.189310,19.698394,0</coordinates></Point></Placemark>
<Placemark><name>Calle Vasco De Quiroga, 291a</name><Point><coordinates>-101.189677,19.700316,0</coordinates></Point></Placemark>
<Placemark><name>Calle Vasco De Quiroga, 144</name><Point><coordinates>-101.189679,19.701608,0</coordinates></Point></Placemark>
<Placemark><name>Calle Héroe De Nacozari, 101</name><Point><coordinates>-101.189214,19.706282,0</coordinates></Point></Placemark>
<Placemark><name>Calle Héroe De Nacozari, 284</name><Point><coordinates>-101.188781,19.707872,0</coordinates></Point></Placemark>
<Placemark><name>Calle Héroe De Nacozari, 446</name><Point><coordinates>-101.188542,19.709288,0</coordinates></Point></Placemark>
<Placemark><name>Calle Héroe De Nacozari, 570</name><Point><coordinates>-101.188391,19.710480,0</coordinates></Point></Placemark>
<Placemark><name>División Del Norte, 164</name><Point><coordinates>-101.185764,19.713442,0</coordinates></Point></Placemark>
<Placemark><name>Salvador Pineda, 30</name><Point><coordinates>-101.186010,19.713805,0</coordinates></Point></Placemark>
<Placemark><name>Carretera Guadalajara - Morelia, 1536</name><Point><coordinates>-101.188910,19.714903,0</coordinates></Point></Placemark>
<Placemark><name>Calle Licenciado Gabino Fraga, 31</name><Point><coordinates>-101.188608,19.717450,0</coordinates></Point></Placemark>
<Placemark><name>Avenida Morelos Norte, 2223</name><Point><coordinates>-101.188376,19.720519,0</coordinates></Point></Placemark>
<Placemark><name>Primer Congreso Constituyente De 1824, 73</name><Point><coordinates>-101.187497,19.721984,0</coordinates></Point></Placemark>
<Placemark><name>Avenida Morelos Norte, 68</name><Point><coordinates>-101.185825,19.723522,0</coordinates></Point></Placemark>
<Placemark><name>Morelos Norte, 3257</name><Point><coordinates>-101.184103,19.725184,0</coordinates></Point></Placemark>
<Placemark><name>Trabajadores De Agricultura, 80</name><Point><coordinates>-101.183057,19.727808,0</coordinates></Point></Placemark>
<Placemark><name>Morelos Norte, 3810d</name><Point><coordinates>-101.182720,19.731532,0</coordinates></Point></Placemark>
<Placemark><name>Calle Rosio Prospero, 4000</name><Point><coordinates>-101.182477,19.733942,0</coordinates></Point></Placemark>
<Placemark><name>Guadalupe Pineda, 4156</name><Point><coordinates>-101.181483,19.736946,0</coordinates></Point></Placemark>
<Placemark><name>Avenida Morelos Norte, 4502</name><Point><coordinates>-101.177620,19.739221,0</coordinates></Point></Placemark>
<Placemark><name>Avenida Morelos Norte, 4900</name><Point><coordinates>-101.176558,19.741168,0</coordinates></Point></Placemark>
<Placemark><name>Fresno, 74</name><Point><coordinates>-101.174291,19.744442,0</coordinates></Point></Placemark>
<Placemark><name>Fresno, 164</name><Point><coordinates>-101.172537,19.743644,0</coordinates></Point></Placemark>
<Placemark><name>Piñón, 31</name><Point><coordinates>-101.170622,19.743450,0</coordinates></Point></Placemark>
<Placemark><name>Madroño, 488</name><Point><coordinates>-101.168938,19.744192,0</coordinates></Point></Placemark>
<Placemark><name>Aguacate, 65</name><Point><coordinates>-101.167420,19.745258,0</coordinates></Point></Placemark>
<Placemark><name>Calle Encino, 444</name><Point><coordinates>-101.167422,19.747124,0</coordinates></Point></Placemark>
<Placemark><name>Calle Jacaranda, 272</name><Point><coordinates>-101.167315,19.748709,0</coordinates></Point></Placemark>
<Placemark><name>Calle Jacarandas, 455</name><Point><coordinates>-101.165968,19.748104,0</coordinates></Point></Placemark>
<Placemark><name>Nardo, 36</name><Point><coordinates>-101.165014,19.748331,0</coordinates></Point></Placemark>
</Document></kml>